{
"type": "FeatureCollection",
"name": "Fermate Tram",
"crs": { "type": "name", "properties": { "name": "urn:ogc:def:crs:OGC:1.3:CRS84" } },
"features": [
{ "type": "Feature", "properties": { "fid": 1, "nome_ferma": "VILLA COSTANZA", "pensilina": 0, "linea": "1", "nome": "Linea 1" }, "geometry": { "type": "Point", "coordinates": [ 11.174091329594603, 43.755136636366416 ] } },
{ "type": "Feature", "properties": { "fid": 2, "nome_ferma": "PORTA AL PRATO-LEOPOLDA (Maggio musicale Fiorentino)", "pensilina": 0, "linea": "1", "nome": "Linea 1" }, "geometry": { "type": "Point", "coordinates": [ 11.23865513326629, 43.777330626056077 ] } },
{ "type": "Feature", "properties": { "fid": 3, "nome_ferma": "CASCINE (Olmi-Carlo Monni)", "pensilina": 0, "linea": "1", "nome": "Linea 1" }, "geometry": { "type": "Point", "coordinates": [ 11.232764300106304, 43.776956018695621 ] } },
{ "type": "Feature", "properties": { "fid": 4, "nome_ferma": "RESISTENZA (Pantin)", "pensilina": 0, "linea": "1", "nome": "Linea 1" }, "geometry": { "type": "Point", "coordinates": [ 11.182147434976345, 43.75792950785916 ] } },
{ "type": "Feature", "properties": { "fid": 5, "nome_ferma": "DE ANDRE' (Ciliegi)", "pensilina": 0, "linea": "1", "nome": "Linea 1" }, "geometry": { "type": "Point", "coordinates": [ 11.179012243060333, 43.754774235744435 ] } },
{ "type": "Feature", "properties": { "fid": 6, "nome_ferma": "PAOLO UCCELLO (Arno)", "pensilina": 0, "linea": "1", "nome": "Linea 1" }, "geometry": { "type": "Point", "coordinates": [ 11.228746255280257, 43.775428734150353 ] } },
{ "type": "Feature", "properties": { "fid": 7, "nome_ferma": "FEDERIGA (Foggini)", "pensilina": 0, "linea": "1", "nome": "Linea 1" }, "geometry": { "type": "Point", "coordinates": [ 11.211949131995926, 43.771506477203665 ] } },
{ "type": "Feature", "properties": { "fid": 8, "nome_ferma": "ARCIPRESSI (Ronco Corto)", "pensilina": 0, "linea": "1", "nome": "Linea 1" }, "geometry": { "type": "Point", "coordinates": [ 11.209248048732753, 43.767449157632768 ] } },
{ "type": "Feature", "properties": { "fid": 9, "nome_ferma": "ALAMANNI-STAZIONE (Santa Maria Novella)", "pensilina": 0, "linea": "1", "nome": "Linea 1" }, "geometry": { "type": "Point", "coordinates": [ 11.24698300681092, 43.776075024785811 ] } },
{ "type": "Feature", "properties": { "fid": 10, "nome_ferma": "ALAMANNI-STAZIONE (Santa Maria Novella)", "pensilina": 0, "linea": "2", "nome": "Linea 2" }, "geometry": { "type": "Point", "coordinates": [ 11.24698300681092, 43.776075024785811 ] } },
{ "type": "Feature", "properties": { "fid": 11, "nome_ferma": "SANSOVINO", "pensilina": 0, "linea": "1", "nome": "Linea 1" }, "geometry": { "type": "Point", "coordinates": [ 11.225199453608351, 43.774646227987454 ] } },
{ "type": "Feature", "properties": { "fid": 12, "nome_ferma": "BATONI", "pensilina": 0, "linea": "1", "nome": "Linea 1" }, "geometry": { "type": "Point", "coordinates": [ 11.221251401340616, 43.774132184259571 ] } },
{ "type": "Feature", "properties": { "fid": 13, "nome_ferma": "BATONI", "pensilina": 0, "linea": "2", "nome": "Linea 2" }, "geometry": { "type": "Point", "coordinates": [ 11.221251401340616, 43.774132184259571 ] } },
{ "type": "Feature", "properties": { "fid": 14, "nome_ferma": "TALENTI", "pensilina": 0, "linea": "1", "nome": "Linea 1" }, "geometry": { "type": "Point", "coordinates": [ 11.216945761877611, 43.773587547259936 ] } },
{ "type": "Feature", "properties": { "fid": 15, "nome_ferma": "ALDO MORO", "pensilina": 0, "linea": "1", "nome": "Linea 1" }, "geometry": { "type": "Point", "coordinates": [ 11.187341366990005, 43.761927509412118 ] } },
{ "type": "Feature", "properties": { "fid": 16, "nome_ferma": "LEOPOLDO(Stibbert)", "pensilina": 0, "linea": "1", "nome": "Linea 1" }, "geometry": { "type": "Point", "coordinates": [ 11.247238172102378, 43.791302545313705 ] } },
{ "type": "Feature", "properties": { "fid": 17, "nome_ferma": "MORGAGNI-UNIVERSITA' (Don Facibeni)", "pensilina": 0, "linea": "1", "nome": "Linea 1" }, "geometry": { "type": "Point", "coordinates": [ 11.243884937930229, 43.799541961148265 ] } },
{ "type": "Feature", "properties": { "fid": 18, "nome_ferma": "CAVOUR", "pensilina": 0, "linea": "2", "nome": "Linea 2" }, "geometry": { "type": "Point", "coordinates": [ 11.261517729214308, 43.782080613789049 ] } },
{ "type": "Feature", "properties": { "fid": 19, "nome_ferma": "LAVAGNINI FORTEZZA (Beppe Matulli)", "pensilina": 0, "linea": "2", "nome": "Linea 2" }, "geometry": { "type": "Point", "coordinates": [ 11.253373211375937, 43.781995565498612 ] } },
{ "type": "Feature", "properties": { "fid": 20, "nome_ferma": "LAVAGNINI POLIZIANO", "pensilina": 0, "linea": "2", "nome": "Linea 2" }, "geometry": { "type": "Point", "coordinates": [ 11.257679569116869, 43.782991376408724 ] } },
{ "type": "Feature", "properties": { "fid": 21, "nome_ferma": "LA MARMORA ORTO BOTANICO", "pensilina": 0, "linea": "2", "nome": "Linea 2" }, "geometry": { "type": "Point", "coordinates": [ 11.261913996395679, 43.781097813844866 ] } },
{ "type": "Feature", "properties": { "fid": 22, "nome_ferma": "VALFONDA-STAZIONE S.M. NOVELLA", "pensilina": 0, "linea": "1", "nome": "Linea 1" }, "geometry": { "type": "Point", "coordinates": [ 11.249358558640957, 43.776533454679765 ] } },
{ "type": "Feature", "properties": { "fid": 23, "nome_ferma": "FORTEZZA (Fiere e Congressi)", "pensilina": 0, "linea": "1", "nome": "Linea 1" }, "geometry": { "type": "Point", "coordinates": [ 11.249597307540132, 43.780424730038057 ] } },
{ "type": "Feature", "properties": { "fid": 24, "nome_ferma": "BELFIORE", "pensilina": 0, "linea": "2", "nome": "Linea 2" }, "geometry": { "type": "Point", "coordinates": [ 11.243012487679676, 43.782035219677425 ] } },
{ "type": "Feature", "properties": { "fid": 25, "nome_ferma": "ROSSELLI", "pensilina": 0, "linea": "2", "nome": "Linea 2" }, "geometry": { "type": "Point", "coordinates": [ 11.245056583545132, 43.778880924220715 ] } },
{ "type": "Feature", "properties": { "fid": 26, "nome_ferma": "UNITA'", "pensilina": 0, "linea": "2", "nome": "Linea 2" }, "geometry": { "type": "Point", "coordinates": [ 11.249953710945373, 43.775038012224236 ] } },
{ "type": "Feature", "properties": { "fid": 27, "nome_ferma": "PERETOLA AEROPORTO", "pensilina": 0, "linea": "2", "nome": "Linea 2" }, "geometry": { "type": "Point", "coordinates": [ 11.202387915374375, 43.803149835404199 ] } },
{ "type": "Feature", "properties": { "fid": 28, "nome_ferma": "GUIDONI", "pensilina": 0, "linea": "2", "nome": "Linea 2" }, "geometry": { "type": "Point", "coordinates": [ 11.208359537290518, 43.799693563720808 ] } },
{ "type": "Feature", "properties": { "fid": 29, "nome_ferma": "NOVOLI-PALAZZI ROSSI", "pensilina": 0, "linea": "2", "nome": "Linea 2" }, "geometry": { "type": "Point", "coordinates": [ 11.213793448310341, 43.796399844930818 ] } },
{ "type": "Feature", "properties": { "fid": 30, "nome_ferma": "NOVOLI-TORRE DEGLI AGLI", "pensilina": 0, "linea": "2", "nome": "Linea 2" }, "geometry": { "type": "Point", "coordinates": [ 11.217982668474319, 43.794317086807183 ] } },
{ "type": "Feature", "properties": { "fid": 31, "nome_ferma": "NOVOLI-REGIONE TOSCANA (Palazzo di Giustizia)", "pensilina": 0, "linea": "2", "nome": "Linea 2" }, "geometry": { "type": "Point", "coordinates": [ 11.223330648367337, 43.792122847091363 ] } },
{ "type": "Feature", "properties": { "fid": 32, "nome_ferma": "BUONSIGNORI-LICEO DA VINCI", "pensilina": 0, "linea": "2", "nome": "Linea 2" }, "geometry": { "type": "Point", "coordinates": [ 11.234630727231364, 43.788634544579885 ] } },
{ "type": "Feature", "properties": { "fid": 33, "nome_ferma": "PONTE ALL'ASSE", "pensilina": 0, "linea": "2", "nome": "Linea 2" }, "geometry": { "type": "Point", "coordinates": [ 11.239693266757287, 43.786700465544577 ] } },
{ "type": "Feature", "properties": { "fid": 34, "nome_ferma": "STROZZI-FALLACI", "pensilina": 0, "linea": "1", "nome": "Linea 1" }, "geometry": { "type": "Point", "coordinates": [ 11.251894631530268, 43.783451435463888 ] } },
{ "type": "Feature", "properties": { "fid": 35, "nome_ferma": "STATUTO", "pensilina": 0, "linea": "1", "nome": "Linea 1" }, "geometry": { "type": "Point", "coordinates": [ 11.250802330869597, 43.785743764991601 ] } },
{ "type": "Feature", "properties": { "fid": 36, "nome_ferma": "MURATORI-STAZIONE STATUTO", "pensilina": 0, "linea": "1", "nome": "Linea 1" }, "geometry": { "type": "Point", "coordinates": [ 11.249394717161683, 43.788259202477967 ] } },
{ "type": "Feature", "properties": { "fid": 37, "nome_ferma": "PISACANE", "pensilina": 0, "linea": "1", "nome": "Linea 1" }, "geometry": { "type": "Point", "coordinates": [ 11.243966140238381, 43.793155558037377 ] } },
{ "type": "Feature", "properties": { "fid": 38, "nome_ferma": "DALMAZIA", "pensilina": 0, "linea": "1", "nome": "Linea 1" }, "geometry": { "type": "Point", "coordinates": [ 11.240541209859803, 43.795652146048845 ] } },
{ "type": "Feature", "properties": { "fid": 39, "nome_ferma": "CAREGGI-OSPEDALE", "pensilina": 0, "linea": "1", "nome": "Linea 1" }, "geometry": { "type": "Point", "coordinates": [ 11.246610073974461, 43.803223512139631 ] } },
{ "type": "Feature", "properties": { "fid": 40, "nome_ferma": "POGGETTO", "pensilina": 0, "linea": "1", "nome": "Linea 1" }, "geometry": { "type": "Point", "coordinates": [ 11.244722650548347, 43.793960461696074 ] } },
{ "type": "Feature", "properties": { "fid": 41, "nome_ferma": "LIBERTA' PARTERRE", "pensilina": 0, "linea": "2", "nome": "Linea 2" }, "geometry": { "type": "Point", "coordinates": [ 11.262243501156025, 43.784227281868787 ] } },
{ "type": "Feature", "properties": { "fid": 42, "nome_ferma": "SAN MARCO UNIVERSITA'", "pensilina": 0, "linea": "2", "nome": "Linea 2" }, "geometry": { "type": "Point", "coordinates": [ 11.258615519431375, 43.777676143179846 ] } },
{ "type": "Feature", "properties": { "fid": 43, "nome_ferma": "VITTORIO EMANUELE II (Teatro di Rifredi)", "pensilina": 0, "linea": "1", "nome": "Linea 1" }, "geometry": { "type": "Point", "coordinates": [ 11.241566464743608, 43.795829665720021 ] } },
{ "type": "Feature", "properties": { "fid": 44, "nome_ferma": "REDI", "pensilina": 0, "linea": "2", "nome": "Linea 2" }, "geometry": { "type": "Point", "coordinates": [ 11.242288645346248, 43.785257765316835 ] } },
{ "type": "Feature", "properties": { "fid": 45, "nome_ferma": "NENNI TORREGALLI (Lupi di Toscana)", "pensilina": 0, "linea": "1", "nome": "Linea 1" }, "geometry": { "type": "Point", "coordinates": [ 11.19796491737946, 43.764144457557414 ] } }
]
}
